{
    "plants": [
        {
            "id": 1,
            "name": "KHE S",
            "street": "Siemensallee 84",
            "code": "76187",
            "city": "Karlsruhe",
            "latitude": 49.028764,
            "longitude": 8.343651,
            "url": "https://sal.siemens.cloud/location/detail/2997"
        },
        {
            "id": 2,
            "name": "AMB",
            "street": "Werner-von-Siemens-Str. 48",
            "code": "92224",
            "city": "Amberg",
            "latitude": 49.43323,
            "longitude": 11.86324,
            "url": "https://sal.siemens.cloud/location/detail/2"
        },
        {
            "id": 3,
            "name": "NES S",
            "street": "Siemensstr. 15",
            "code": "97616 ",
            "city": "Bad Neustadt a.d.Saale",
            "latitude": 50.32817,
            "longitude": 10.22413,
            "url": "https://sal.siemens.cloud/location/detail/6"
        },
        {
            "id": 4,
            "name": "WAR",
            "street": "Max-Planck-Stra√üe 5",
            "code": "59581",
            "city": "Warstein",
            "longitude": 51.4880,
            "latitude": 8.3231,
            "url": "https://www.infineon.com/cms/warstein/de/?redirId=52413"
        },
        {
            "id": 5,
            "name": "MAL",
            "street": "Free Trade Zone, Batu Berendam",
            "code": "75350",
            "city": "Malacca",
            "longitude": 2.23367,
            "latitude": 102.2594,
            "url": "https://www.infineon.com/cms/de/about-infineon/company/find-a-location/"
        }
    ],
    "machines": [
        {
            "id": 1,
            "name": "Drilling Machine 1",
            "status": "running"
        },
        {
            "id": 2,
            "name": "Milling Machine 1",
            "status": "error"
        },
        {
            "id": 3,
            "name": "Cutting Machine 1",
            "status": "running"
        }
    ]
}
